City_ID,City,Lat,Lng,Max Temp,Humidity,Cloudiness,Wind Speed,Country,Date
0,altamira,-3.2033,-52.2064,298.46,73,31,2.04,BR,1693134693
1,margaret river,-33.95,115.0667,288.84,85,61,5.83,AU,1693134715
2,puerto ayora,-0.7393,-90.3518,297.34,92,77,2.24,EC,1693134716
3,hawaiian paradise park,19.5933,-154.9731,295.88,91,100,2.06,US,1693134716
4,georgetown,5.4112,100.3354,304.11,66,20,1.03,MY,1693134560
5,voznesenskaya,44.5527,41.0318,304.26,16,0,4.28,RU,1693134717
6,thompson,55.7435,-97.8558,287.11,83,70,2.02,CA,1693134197
7,ypsonas,34.6884,32.9574,303.69,62,0,8.23,CY,1693134717
8,qaqortoq,60.7167,-46.0333,279.73,81,94,1.58,GL,1693134718
9,cidreira,-30.1811,-50.2056,281.36,75,1,4.06,BR,1693134719
10,lebu,-37.6167,-73.65,279.78,77,0,2.94,CL,1693134719
11,shiyan,32.6475,110.7781,293.85,91,100,1.22,CN,1693134719
12,wuyang,31.9925,116.2472,295.43,96,100,4.11,CN,1693134720
13,naze,28.3667,129.4833,299.1,81,22,6.15,JP,1693134579
14,papatowai,-46.5619,169.4708,277.12,77,99,2.89,NZ,1693134720
15,lensk,60.7253,114.9278,292.99,58,4,1.96,RU,1693134721
16,waitangi,-43.9535,-176.5597,279.16,65,100,5.48,NZ,1693134721
17,adamstown,-25.066,-130.1015,292.82,60,57,5.1,PN,1693134722
18,broken hill,-31.95,141.4333,290.15,33,2,3.38,AU,1693134715
19,iqaluit,63.7506,-68.5145,279.0,93,75,11.32,CA,1693134723
20,dakhla,23.6848,-15.958,300.16,65,4,11.32,EH,1693134723
21,bethel,41.3712,-73.414,291.84,88,0,0.0,US,1693134723
22,port elizabeth,-33.918,25.5701,292.09,52,0,4.12,ZA,1693134724
23,grytviken,-54.2811,-36.5092,268.56,83,72,4.5,GS,1693134725
24,bastos,-21.9219,-50.7339,286.74,77,93,5.65,BR,1693134726
25,kavaratti,10.5669,72.642,300.62,76,100,3.38,IN,1693134726
26,linxia chengguanzhen,35.6003,103.2064,294.08,43,48,3.8,CN,1693134726
27,tolanaro,-25.0319,46.9987,298.63,61,75,3.25,MG,1693134727
28,ola,59.5833,151.2833,284.34,86,66,1.44,RU,1693134727
29,puerto natales,-51.7236,-72.4875,274.4,98,100,0.55,CL,1693134728
30,i-n-salah,27.1935,2.4607,313.06,16,50,1.97,DZ,1693134728
31,jinghong,21.991,100.7341,301.15,76,76,1.52,CN,1693134728
32,kingston,17.997,-76.7936,299.95,87,97,0.89,JM,1693134729
33,ad dabbah,18.05,30.95,314.07,21,66,10.2,SD,1693134729
34,port-aux-francais,-49.35,70.2167,279.89,96,100,19.76,TF,1693134729
35,tidjikja,18.5564,-11.4271,312.25,10,25,5.46,MR,1693134729
36,invercargill,-46.4,168.35,275.38,91,69,0.89,NZ,1693134552
37,ilulissat,69.2167,-51.1,282.16,66,75,4.63,GL,1693134730
38,dire,12.2833,-10.9667,302.11,81,92,1.05,ML,1693134731
39,afaahiti,-17.75,-149.2833,297.08,73,19,6.56,PF,1693134731
40,guerrero negro,27.9769,-114.0611,293.64,84,62,3.62,MX,1693134731
41,vorgashor,67.5833,63.95,278.39,95,100,5.92,RU,1693134732
42,barda,40.3744,47.1267,302.75,43,86,2.8,AZ,1693134732
43,yellowknife,62.456,-114.3525,284.49,95,98,2.24,CA,1693134732
44,iskateley,67.6803,53.1512,282.33,81,100,5.69,RU,1693134732
45,lompoc,34.6391,-120.4579,289.55,87,100,3.13,US,1693134733
46,tianpeng,30.9866,103.9393,298.31,68,54,1.83,CN,1693134733
47,suva,-18.1416,178.4415,295.86,83,75,3.6,FJ,1693134657
48,utrik,11.2278,169.8474,301.21,81,100,6.52,MH,1693134734
49,vernon,50.2581,-119.2691,289.51,63,11,2.57,CA,1693134734
50,albany,42.6001,-73.9662,290.75,87,34,2.01,US,1693134518
51,ushuaia,-54.8,-68.3,273.41,93,100,2.85,AR,1693134643
52,san pedro pochutla,15.7333,-96.4667,297.43,88,72,1.6,MX,1693134735
53,saipan,15.1355,145.701,299.54,94,100,3.09,MP,1693134579
54,christchurch,-43.5333,172.6333,278.68,86,75,3.09,NZ,1693134737
55,bilibino,68.0546,166.4372,281.28,94,100,1.2,RU,1693134737
56,nampula,-15.1165,39.2666,304.12,30,40,3.6,MZ,1693134738
57,wailua homesteads,22.0669,-159.378,299.59,82,40,6.69,US,1693134740
58,kourou,5.1552,-52.6478,298.18,87,14,2.89,GF,1693134740
59,teuva,62.4819,21.7416,286.8,93,100,4.39,FI,1693134740
60,edinburgh of the seven seas,-37.0676,-12.3116,285.53,89,100,9.46,SH,1693134741
61,port saint john's,-31.6229,29.5448,292.32,48,73,5.09,ZA,1693134741
62,talnakh,69.4865,88.3972,288.82,57,89,4.04,RU,1693134742
63,ribeira grande,38.5167,-28.7,298.02,73,20,5.14,PT,1693134742
64,hithadhoo,-0.6,73.0833,301.55,73,18,3.45,MV,1693134742
65,lihue,21.9789,-159.3672,299.92,75,40,6.69,US,1693134743
66,st. john's,47.5649,-52.7093,289.81,92,75,6.17,CA,1693134743
67,san patricio,28.017,-97.5169,300.28,88,0,2.11,US,1693134743
68,kirillov,59.863,38.3813,288.94,60,100,3.31,RU,1693134744
69,udachny,66.4167,112.4,297.29,33,50,3.86,RU,1693134744
70,susuman,62.7833,148.1667,283.39,63,83,1.77,RU,1693134744
71,stanley,54.868,-1.6985,290.23,81,75,2.06,GB,1693134745
72,fale old settlement,-9.3852,-171.2468,301.24,73,32,5.81,TK,1693134746
73,hilo,19.7297,-155.09,296.83,80,100,2.06,US,1693134746
74,ashmyany,54.425,25.9378,297.15,59,100,1.76,BY,1693134746
75,wiltz,49.9689,5.9319,293.46,67,93,5.77,LU,1693134747
76,barra dos coqueiros,-10.9089,-37.0386,300.16,83,20,3.6,BR,1693134747
77,lazaro cardenas,17.9583,-102.2,298.47,89,100,1.54,MX,1693134740
78,mareeba,-17.0,145.4333,292.55,85,5,1.36,AU,1693134748
79,anadyr,64.75,177.4833,281.43,81,0,3.0,RU,1693134748
80,tura,25.5198,90.2201,298.85,95,100,1.28,IN,1693134748
81,kapuskasing,49.4169,-82.4331,276.2,100,0,0.0,CA,1693134749
82,quepos,9.4236,-84.1652,298.82,85,75,1.53,CR,1693134749
83,luderitz,-26.6481,15.1594,299.31,20,0,5.85,NA,1693134608
84,colonia,50.9333,6.95,295.14,65,20,3.6,DE,1693134646
85,pisco,-13.7,-76.2167,292.18,77,100,0.0,PE,1693134750
86,shizuishan,39.2333,106.7694,299.36,23,4,5.61,CN,1693134593
87,tabou,4.423,-7.3528,299.01,84,100,4.7,CI,1693134751
88,kodiak,57.79,-152.4072,286.88,88,0,4.63,US,1693134752
89,carbonear,47.7332,-53.2148,290.06,92,76,4.11,CA,1693134752
90,northam,51.0333,-4.2167,289.48,80,100,7.35,GB,1693134753
91,igarka,67.4667,86.5833,288.42,58,69,3.39,RU,1693134753
92,nantucket,41.2835,-70.0995,292.6,99,0,3.09,US,1693134753
93,colesberg,-30.72,25.0972,288.58,17,0,3.75,ZA,1693134754
94,bam,29.106,58.357,311.84,11,1,6.25,IR,1693134754
95,port lincoln,-34.7333,135.8667,284.95,68,20,2.7,AU,1693134754
96,zouerate,22.7187,-12.4521,311.37,18,5,9.01,MR,1693134755
97,peterhead,57.5058,-1.7981,288.4,84,60,7.66,GB,1693134755
98,bavly,54.393,53.2602,290.17,45,80,5.32,RU,1693134755
99,ulladulla,-35.35,150.4667,286.89,85,98,1.14,AU,1693134475
100,hamilton,39.1834,-84.5333,293.39,88,100,6.17,US,1693134757
101,kununurra,-15.7667,128.7333,299.14,34,3,3.09,AU,1693134757
102,bamboo flat,11.7,92.7167,302.2,79,75,3.6,IN,1693134757
103,atafu village,-8.5421,-172.5159,301.35,72,82,5.77,TK,1693134757
104,hasaki,35.7333,140.8333,300.54,81,100,2.27,JP,1693134758
105,takelsa,36.7833,10.6333,314.38,25,5,0.97,TN,1693134758
106,nemuro,43.3236,145.575,292.98,99,100,5.62,JP,1693134758
107,makarska,43.2969,17.0178,307.26,63,0,2.02,HR,1693134759
108,hermanus,-34.4187,19.2345,291.37,59,43,4.2,ZA,1693134759
109,harstad,68.799,16.5293,292.17,64,3,2.24,NO,1693134484
110,west island,-12.1568,96.8225,298.14,83,75,6.69,CC,1693134760
111,villamontes,-21.25,-63.5,285.36,48,1,1.21,BO,1693134760
112,al jawf,29.5,38.75,310.36,13,0,3.55,SA,1693134760
113,nguigmi,14.2495,13.1092,309.36,34,98,4.96,NE,1693134761
114,sanming,26.2486,117.6186,300.02,91,97,0.98,CN,1693134761
115,college,64.8569,-147.8028,290.12,76,100,2.57,US,1693134762
116,pama,11.2497,0.7075,302.51,67,100,3.43,BF,1693134763
117,machico,32.7,-16.7667,299.66,73,40,8.23,PT,1693134763
118,alice springs,-23.7,133.8833,288.9,21,14,3.6,AU,1693134636
119,lianhe,47.1333,129.2667,288.47,96,46,0.69,CN,1693134764
120,sabha,27.0377,14.4283,312.78,17,71,3.49,LY,1693134764
121,ust-nera,64.5667,143.2,283.73,77,98,2.5,RU,1693134765
122,blackmans bay,-43.0167,147.3167,279.0,89,0,0.81,AU,1693134765
123,gadzhiyevo,69.2551,33.3362,283.62,79,100,4.86,RU,1693134765
124,walvis bay,-22.9575,14.5053,287.09,54,0,4.95,NA,1693134765
125,mili,6.0815,171.735,301.39,78,86,4.44,MH,1693134766
126,belabo,4.9333,13.3,301.77,58,100,1.43,CM,1693134766
127,sena madureira,-9.0656,-68.6569,296.09,73,1,0.46,BR,1693134766
128,taulaga,-11.0553,-171.0883,300.63,80,30,5.79,AS,1693134767
129,nova vicosa,-17.8919,-39.3719,296.42,87,100,5.24,BR,1693134767
130,tazovsky,67.4667,78.7,287.76,58,75,4.8,RU,1693134767
131,uige,-7.6087,15.0613,307.37,28,5,2.29,AO,1693134768
132,eastham,41.8301,-69.9739,293.16,87,100,2.57,US,1693134768
133,east london,-33.0153,27.9116,292.67,45,0,5.66,ZA,1693134768
134,inhambane,-23.865,35.3833,297.14,50,75,12.86,MZ,1693134769
135,donggang,28.9365,114.2259,297.85,97,100,1.79,CN,1693134769
136,whitehorse,60.7161,-135.0538,288.04,61,9,1.79,CA,1693134681
137,ancud,-41.8697,-73.8203,277.93,86,85,4.93,CL,1693134770
138,arraial do cabo,-22.9661,-42.0278,290.07,94,75,1.54,BR,1693134770
139,ocean shores,46.9737,-124.1563,290.15,95,100,0.0,US,1693134771
140,kerikeri,-35.2268,173.9474,281.43,91,35,1.6,NZ,1693134680
141,luancheng,37.8792,114.6517,291.99,91,100,2.39,CN,1693134771
142,olonkinbyen,70.9221,-8.7187,280.13,86,100,8.65,SJ,1693134771
143,flying fish cove,-10.4217,105.6791,297.97,78,40,5.66,CX,1693134772
144,vilyuchinsk,52.9306,158.4028,286.07,79,78,0.6,RU,1693134772
145,novo aripuana,-5.1206,-60.3797,297.48,72,8,1.02,BR,1693134772
146,jamestown,42.097,-79.2353,288.92,96,0,3.09,US,1693134773
147,tiksi,71.6872,128.8694,283.57,96,43,1.49,RU,1693134773
148,longyearbyen,78.2186,15.6401,281.06,93,100,5.14,SJ,1693134736
149,prabumulih,-3.45,104.25,302.25,59,94,1.83,ID,1693134775
150,severo-yeniseyskiy,60.3725,93.0408,289.69,53,64,2.32,RU,1693134775
151,clanton,32.8387,-86.6294,297.43,90,13,1.45,US,1693134775
152,albesti,47.7,27.0667,311.43,18,62,3.86,RO,1693134776
153,ca mau,9.1769,105.15,302.06,72,83,4.93,VN,1693134553
154,la estrella,6.1577,-75.6432,290.83,99,55,1.79,CO,1693134666
155,port mathurin,-19.6833,63.4167,295.85,73,27,10.86,MU,1693134777
156,conceicao do rio verde,-21.8808,-45.0853,287.8,87,100,1.54,BR,1693134777
157,richards bay,-28.783,32.0377,293.35,51,24,5.7,ZA,1693134778
158,charters towers,-20.1,146.2667,289.49,74,0,3.98,AU,1693134778
159,prairie view,30.0933,-95.9877,300.25,86,0,2.59,US,1693134779
160,mata-utu,-13.2816,-176.1745,300.12,79,97,10.45,WF,1693134779
161,codrington,-38.2667,141.9667,284.94,85,100,2.85,AU,1693134779
162,shetpe,44.1667,52.1167,297.36,26,63,7.47,KZ,1693134780
163,zhumysker,49.3333,49.4,297.39,24,34,7.2,KZ,1693134780
164,elk city,35.412,-99.4043,295.14,88,0,4.12,US,1693134780
165,mitu,1.1983,-70.1733,295.11,95,7,0.52,CO,1693134781
166,trincomalee,8.5711,81.2335,302.65,72,21,6.53,LK,1693134782
167,ribnitz-damgarten,54.25,12.4667,295.96,74,100,0.89,DE,1693134782
168,wenchang,30.904,118.4887,299.23,89,100,1.51,CN,1693134783
169,holualoa,19.6228,-155.9522,296.06,86,75,5.66,US,1693134783
170,la ronge,55.1001,-105.2842,289.29,77,20,3.6,CA,1693134784
171,bawshar,23.5556,58.3989,304.8,74,76,5.66,OM,1693134727
172,tindouf,27.6711,-8.1474,314.4,11,0,2.06,DZ,1693134786
173,weno,7.4515,151.8468,301.6,74,100,3.39,FM,1693134786
174,chonchi,-42.6128,-73.8092,278.77,92,100,2.57,CL,1693134787
175,al ghayzah,16.2079,52.176,302.65,70,38,5.82,YE,1693134787
176,crane,31.3974,-102.3501,299.21,46,12,3.02,US,1693134788
177,goure,13.9835,10.2704,309.19,34,84,4.02,NE,1693134790
178,rouyn-noranda,48.2398,-79.0288,275.2,93,20,0.0,CA,1693134790
179,puerto baquerizo moreno,-0.9,-89.6,296.61,79,82,5.43,EC,1693134790
180,sandnessjoen,66.0217,12.6316,293.44,45,0,2.57,NO,1693134790
181,vangviang,18.9333,102.45,299.11,96,100,0.5,LA,1693134791
182,pundong,-7.9522,110.3486,296.11,80,8,2.2,ID,1693134791
183,natal,-5.795,-35.2094,300.27,89,40,2.57,BR,1693134791
184,karratha,-20.7377,116.8463,296.08,61,0,3.7,AU,1693134792
185,le port,-20.9373,55.2919,298.13,95,24,3.19,RE,1693134702
186,mariakani,-3.8633,39.4736,304.94,38,5,7.05,KE,1693134793
187,cowra,-33.8333,148.6833,284.58,76,100,1.54,AU,1693134793
188,savanna-la-mar,18.219,-78.1332,299.12,88,100,0.7,JM,1693134793
189,uyuni,-20.4597,-66.825,273.33,36,27,3.43,BO,1693134794
190,muli,2.9167,73.5667,301.61,71,31,2.32,MV,1693134794
191,coquimbo,-29.9533,-71.3436,286.84,64,0,1.69,CL,1693134781
192,pajapan,18.25,-94.7,296.38,93,78,0.69,MX,1693134795
193,kill devil hills,36.0307,-75.676,298.7,98,0,0.0,US,1693134796
194,nadym,65.5333,72.5167,288.61,55,75,3.74,RU,1693134796
195,willowmore,-33.2926,23.4895,286.67,34,1,1.03,ZA,1693134797
196,malango,-2.9627,119.9001,292.96,97,49,0.55,ID,1693134797
197,nova sintra,14.8667,-24.7167,297.68,76,32,1.37,CV,1693134798
198,okhotsk,59.3833,143.3,287.61,77,87,1.16,RU,1693134799
199,monte argentario,42.4345,11.1195,305.04,69,77,7.41,IT,1693134800
200,mukalla,14.5425,49.1242,307.45,56,40,5.58,YE,1693134800
201,el triunfo,-1.9333,-79.9667,296.17,87,20,1.35,EC,1693134801
202,cabo san lucas,22.8909,-109.9124,302.88,75,35,2.24,MX,1693134801
203,george town,5.4112,100.3354,304.11,66,20,1.03,MY,1693134643
204,kuzovatovo,53.5468,47.6866,291.02,63,100,6.38,RU,1693134802
205,fisterra,42.9049,-9.2629,294.68,72,24,6.39,ES,1693134802
206,micheweni,-4.9667,39.8333,301.01,68,14,5.19,TZ,1693134802
207,salinopolis,-0.6136,-47.3561,300.46,74,16,3.68,BR,1693134803
208,alofi,-19.0595,-169.9187,294.09,68,93,3.6,NU,1693134803
209,isafjordur,66.0755,-23.124,286.17,54,20,6.17,IS,1693134803
210,saint-pierre,-21.3393,55.4781,296.97,73,100,5.14,RE,1693134804
211,mount gambier,-37.8333,140.7667,281.33,94,48,2.02,AU,1693134804
212,sao jose da coroa grande,-8.8978,-35.1478,299.36,85,31,4.28,BR,1693134804
213,ta`u,-14.2336,-169.5144,299.88,77,96,8.06,AS,1693134805
214,nuuk,64.1835,-51.7216,279.49,93,75,10.8,GL,1693134661
215,sault ste. marie,46.5168,-84.3333,281.46,96,0,0.0,CA,1693134806
216,mudgee,-32.5943,149.5871,286.92,57,99,2.05,AU,1693134628
217,yatou,37.15,122.3833,291.82,93,100,3.15,CN,1693134806
218,acarau,-2.8856,-40.12,301.26,68,11,5.69,BR,1693134806
219,kampong cham,11.9934,105.4635,303.12,71,99,1.62,KH,1693134555
220,livingston,55.9029,-3.5226,289.15,86,75,4.12,GB,1693134680
221,new norfolk,-42.7826,147.0587,279.66,92,0,0.48,AU,1693134807
222,adrar,20.5022,-10.0711,313.04,8,57,5.07,MR,1693134808
223,geraldton,-28.7667,114.6,289.38,94,0,2.06,AU,1693134808
224,constantia,44.1833,28.65,304.65,54,0,4.66,RO,1693134601
225,avarua,-21.2078,-159.775,294.18,88,75,2.06,CK,1693134808
226,tazacorte,28.629,-17.9293,300.69,88,20,7.2,ES,1693134809
227,santa isabel,-23.3156,-46.2214,285.99,93,100,2.82,BR,1693134809
228,vila do maio,15.1333,-23.2167,303.59,74,53,2.27,CV,1693134809
229,kuraymah,18.55,31.85,314.67,19,99,7.79,SD,1693134809
230,haiku-pauwela,20.9219,-156.3051,296.62,79,75,7.72,US,1693134810
231,tual,-5.6667,132.75,298.73,83,87,9.95,ID,1693134810
232,mejit,10.2753,170.8646,301.12,80,100,6.25,MH,1693134810
233,yerofey pavlovich,53.9667,121.9667,287.62,56,98,1.42,RU,1693134811
234,kuanda,56.3161,116.0806,291.93,64,21,1.67,RU,1693134811
235,lepsy,46.235,78.9456,301.79,26,98,7.45,KZ,1693134812
236,san antonio de pale,-1.4014,5.6325,297.07,84,98,6.57,GQ,1693134812
237,sisimiut,66.9395,-53.6735,278.95,84,100,8.12,GL,1693134813
238,jayapura,-2.5333,140.7,299.81,89,50,2.45,ID,1693134718
239,churapcha,62.0025,132.4325,289.26,75,100,1.33,RU,1693134814
240,novoishimskiy,53.1981,66.7694,291.01,49,81,5.07,KZ,1693134814
241,nangong,37.3581,115.3744,292.29,93,91,2.98,CN,1693134814
242,olyokminsk,60.3736,120.4264,292.41,55,21,1.51,RU,1693134815
243,manokwari,-0.8667,134.0833,299.89,81,66,0.85,ID,1693134815
244,maralal,1.0968,36.698,299.11,31,45,3.63,KE,1693134816
245,marsa alam,25.0757,34.8918,309.02,35,2,11.26,EG,1693134816
246,khorixas,-20.3667,14.9667,306.25,6,0,7.34,NA,1693134631
247,phayakkhaphum phisai,15.5163,103.1937,304.49,63,99,5.78,TH,1693134792
248,quellon,-43.1167,-73.6167,281.29,87,75,6.69,CL,1693134817
249,karwar,14.8,74.1333,301.33,71,94,4.22,IN,1693134817
250,xingcheng,40.6167,120.7167,296.39,65,100,4.9,CN,1693134818
251,namibe,-15.1961,12.1522,295.58,66,8,6.79,AO,1693134818
252,mandan,46.8267,-100.8896,289.14,89,20,4.63,US,1693134819
253,glace bay,46.1969,-59.957,292.47,97,100,9.26,CA,1693134819
254,uturoa,-16.7333,-151.4333,298.89,72,18,6.24,PF,1693134819
255,parnaiba,-2.9047,-41.7767,301.12,74,20,5.14,BR,1693134820
256,lorengau,-2.0226,147.2712,300.79,83,62,6.66,PG,1693134820
257,brownfield,33.1812,-102.2744,296.45,88,5,4.21,US,1693134820
258,kodinsk,58.6881,99.1844,294.14,58,29,0.48,RU,1693134820
259,mangrol,21.1167,70.1167,301.28,72,98,6.13,IN,1693134821
260,vorkuta,67.5,64.0,278.52,95,100,5.74,RU,1693134821
261,lititz,40.1573,-76.3069,293.38,90,0,0.0,US,1693134821
262,lovosice,50.515,14.051,292.6,88,100,1.34,CZ,1693134822
263,sitka,57.0531,-135.33,288.09,82,40,3.6,US,1693134822
264,san pascual,13.7975,121.0342,299.05,86,100,9.09,PH,1693134823
265,laayoune,27.1622,-13.2032,302.34,74,35,10.8,EH,1693134823
266,kayangel,8.0823,134.7173,301.32,83,76,6.79,PW,1693134824
267,greenville,35.6127,-77.3663,297.16,95,40,0.0,US,1693134824
268,merizo village,13.2658,144.6691,300.58,88,100,7.1,GU,1693134825
269,enewetak,11.3474,162.3373,300.64,81,100,8.88,MH,1693134825
270,tionk essil,12.7856,-16.5217,302.52,71,100,3.48,SN,1693134825
271,bredasdorp,-34.5322,20.0403,289.96,50,56,4.89,ZA,1693134826
272,mokhsogollokh,61.4681,128.9203,290.57,66,18,1.1,RU,1693134826
273,nizao,18.25,-70.2,298.97,85,85,3.17,DO,1693134827
274,tharyarwady,17.65,95.8,298.9,89,99,3.28,MM,1693134828
275,poso,-1.3959,120.7524,298.99,80,27,1.55,ID,1693134828
276,ylitornio,66.3089,23.6773,292.39,43,40,1.07,FI,1693134829
277,palmer,42.1584,-72.3287,291.98,93,0,0.0,US,1693134829
278,mount pearl,47.5166,-52.7813,289.34,92,75,6.17,CA,1693134829
279,nagqu,31.5,92.0,286.61,58,53,2.87,CN,1693134830
280,usinsk,65.9939,57.5281,280.02,88,100,2.9,RU,1693134830
281,machina,13.1364,10.0492,308.26,39,84,5.24,NG,1693134830
282,north platte,41.1239,-100.7654,287.66,92,0,1.54,US,1693134831
283,mikun',62.3547,50.0771,280.68,86,99,3.47,RU,1693134831
284,tiptree,51.8126,0.7489,293.72,58,2,5.76,GB,1693134831
285,kone,-21.0595,164.8658,291.15,70,99,1.98,NC,1693134832
286,laminusa,5.5549,120.9136,301.52,78,67,6.61,PH,1693134832
287,santana,-0.0583,-51.1817,302.25,74,20,4.12,BR,1693134832
288,kangaba,11.9333,-8.4167,299.62,70,92,2.05,ML,1693134833
289,coahuayana de hidalgo,18.7,-103.6583,297.86,90,100,1.53,MX,1693134834
290,manismata,-2.4667,111.0333,299.9,72,95,3.0,ID,1693134834
291,duminichi,53.9345,35.1099,299.02,51,37,2.16,RU,1693134835
292,terrace,54.5163,-128.6035,288.1,82,40,1.03,CA,1693134836
293,katra,32.9833,74.95,299.57,96,21,0.98,IN,1693134836
294,dwarka,22.2394,68.9678,301.52,69,88,8.36,IN,1693134836
295,keflavik,64.0049,-22.5624,287.1,76,75,6.69,IS,1693134837
296,tangalle,6.024,80.7911,303.2,64,25,7.51,LK,1693134837
297,gebeit,21.0667,36.3167,313.99,12,87,3.63,SD,1693134838
298,pimentel,-6.8367,-79.9342,292.29,91,14,3.61,PE,1693134838
299,conception bay south,47.4999,-52.9981,289.67,94,92,3.85,CA,1693134721
300,maragogi,-9.0122,-35.2225,299.27,86,31,4.2,BR,1693134839
301,hadibu,12.65,54.0333,302.17,66,71,10.11,YE,1693134839
302,novodvinsk,64.4165,40.8122,284.75,65,100,3.1,RU,1693134839
303,vadso,70.0744,29.7487,285.24,71,100,5.14,NO,1693134840
304,aioun,16.6614,-9.6149,309.3,31,97,4.62,MR,1693134840
305,kendari,-3.945,122.4989,296.32,79,8,3.09,ID,1693134620
306,paradip garh,20.3167,86.6167,304.07,69,76,5.19,IN,1693134835
307,klyuchi,52.2667,79.1667,293.18,66,100,3.67,RU,1693134841
308,qa'en,33.7265,59.1844,300.04,34,42,7.59,IR,1693134842
309,lydenburg,-25.0978,30.4597,290.75,31,5,3.82,ZA,1693134842
310,ban houayxay,20.2453,100.4547,299.24,90,74,1.41,LA,1693134843
311,la passe,45.5549,-0.8967,295.28,50,3,7.62,FR,1693134843
312,nikolayevsk-on-amure,53.1406,140.73,285.63,64,100,0.27,RU,1693134844
313,katabu,-4.9333,122.5167,297.0,74,12,3.54,ID,1693134844
314,tyukhtet,56.5389,89.3011,294.22,63,97,3.56,RU,1693134845
315,punta arenas,-53.15,-70.9167,276.54,92,100,4.52,CL,1693134846
316,oyama,36.3,139.8,304.59,66,100,2.11,JP,1693134846
317,tateyama,34.9833,139.8667,298.8,83,99,3.14,JP,1693134847
318,porto velho,-8.7619,-63.9039,299.18,73,0,3.6,BR,1693134847
319,kudahuvadhoo,2.6708,72.8944,301.78,70,36,2.25,MV,1693134848
320,crescent city,41.756,-124.2018,287.73,94,100,1.54,US,1693134848
321,jiuquan,39.7432,98.5174,301.48,13,0,9.46,CN,1693134848
322,sabancuy,18.9667,-91.1833,299.53,84,95,1.55,MX,1693134849
323,aasiaat,68.7098,-52.8699,276.47,92,100,2.43,GL,1693134849
324,queenstown,-31.8976,26.8753,287.78,29,2,2.06,ZA,1693134849
325,cabedelo,-6.9811,-34.8339,300.52,82,8,3.9,BR,1693134849
326,kolonia town,6.964,158.206,298.15,100,100,1.54,FM,1693134850
327,burang,30.25,81.1667,286.26,56,80,4.11,CN,1693134850
328,myeik,12.4333,98.6,300.55,80,81,3.27,MM,1693134851
329,baiti,13.745,-14.7482,302.19,77,100,4.53,SN,1693134851
330,noosa heads,-26.3833,153.15,290.99,75,0,5.83,AU,1693134634
331,suntar,62.1444,117.6319,292.19,51,8,1.64,RU,1693134852
332,kutum,14.2,24.6667,305.36,32,84,4.71,SD,1693134852
333,mandera,3.9366,41.867,309.23,20,8,9.15,KE,1693134853
334,kulhudhuffushi,6.6221,73.07,301.85,73,71,4.64,MV,1693134853
335,yuzhno-kurilsk,44.0306,145.8556,293.3,99,100,3.41,RU,1693134853
336,anaconda,46.1285,-112.9423,283.7,50,73,1.07,US,1693134854
337,dudinka,69.4058,86.1778,289.05,63,51,5.05,RU,1693134854
338,arteche,12.2645,125.4048,300.89,75,93,5.04,PH,1693134855
339,celestun,20.8667,-90.4,299.65,87,75,2.89,MX,1693134855
340,high river,50.5834,-113.8687,288.88,70,98,1.71,CA,1693134855
341,vila franca do campo,37.7167,-25.4333,297.38,68,64,5.58,PT,1693134855
342,zhuanghe,39.7008,122.9911,295.95,80,100,2.61,CN,1693134856
343,san luis de la loma,17.2706,-100.8939,297.87,88,39,1.9,MX,1693134856
344,rio grande,-32.035,-52.0986,280.21,75,3,4.74,BR,1693134661
345,sydney,-33.8679,151.2073,288.83,81,91,0.45,AU,1693134147
346,kailua-kona,19.6406,-155.9956,298.13,85,75,5.66,US,1693134773
347,tak bai,6.2595,102.0546,303.14,81,31,2.4,TH,1693134858
348,virrat,62.2476,23.78,288.97,70,82,3.09,FI,1693134860
349,kiunga,-6.1219,141.2906,295.75,98,99,2.21,PG,1693134860
350,zyryanovsk,49.7386,84.2719,306.42,23,85,2.63,KZ,1693134861
351,badger,64.8,-147.5333,290.08,82,100,2.57,US,1693134861
352,lospalos,-8.5186,127.0025,294.08,75,61,4.15,TL,1693134801
353,caleta de carquin,-11.0925,-77.6267,291.5,85,56,3.23,PE,1693134862
354,petropavlovsk-kamchatsky,53.0452,158.6483,285.25,93,79,1.23,RU,1693134567
355,horta,38.5333,-28.6333,297.6,76,20,8.23,PT,1693134863
356,freetown,8.484,-13.2299,301.24,74,78,3.95,SL,1693134669
357,punta cana,18.5818,-68.4043,298.02,88,40,0.0,DO,1693134731
358,alesund,62.4723,6.1549,290.79,94,75,4.63,NO,1693134864
359,olinda,-8.0089,-34.8553,299.0,94,75,1.03,BR,1693134864
360,yemetsk,63.4721,41.7941,285.09,72,99,3.51,RU,1693134864
361,manzhouli,49.6,117.4333,290.56,51,100,5.97,CN,1693134865
362,yeraliyev,43.2,51.65,298.53,36,1,5.64,KZ,1693134865
363,boa vista,2.8197,-60.6733,300.14,83,0,1.03,BR,1693134866
364,khamis mushait,18.3064,42.7292,307.73,7,40,6.69,SA,1693134866
365,huanta,-12.9333,-74.25,285.37,68,61,0.78,PE,1693134867
366,klaksvik,62.2266,-6.589,283.66,86,68,5.62,FO,1693134867
367,oamaru,-45.0784,170.9801,277.25,78,77,5.27,NZ,1693134868
368,tvoroyri,61.5556,-6.8111,284.33,91,100,5.89,FO,1693134868
369,tralee,52.2704,-9.7026,289.29,100,100,4.12,IE,1693134667
370,argo,37.6333,22.7333,306.36,25,46,5.32,GR,1693134649
371,port alfred,-33.5906,26.891,291.58,61,57,3.13,ZA,1693134869
372,borba,-4.3878,-59.5939,298.24,73,4,1.39,BR,1693134869
373,craig,40.5153,-107.5464,287.94,88,0,0.0,US,1693134870
374,happy valley-goose bay,53.3168,-60.3315,283.32,100,100,3.09,CA,1693134870
375,manado,1.487,124.8455,302.58,58,20,5.66,ID,1693134668
376,santa cruz,-17.8,-63.1667,294.85,30,75,6.69,BO,1693134871
377,xapuri,-10.6517,-68.5044,296.19,74,9,1.21,BR,1693134871
378,tahoua,14.8888,5.2692,305.35,48,100,4.32,NE,1693134871
379,island harbour,50.724,-1.2758,292.69,76,62,0.89,GB,1693134872
380,cholpon-ata,42.6494,77.0823,294.18,61,57,1.27,KG,1693134872
381,minab,27.1467,57.0801,309.44,45,6,6.6,IR,1693134873
382,remire-montjoly,4.9167,-52.2667,298.17,100,100,0.0,GF,1693134873
383,chibougamau,49.9168,-74.3659,279.94,87,0,1.03,CA,1693134874
384,caucete,-31.6518,-68.2811,278.66,70,8,0.24,AR,1693134874
385,fortaleza,-3.7227,-38.5247,301.22,78,75,2.57,BR,1693134874
386,kolonia,50.9333,6.95,295.14,65,20,3.6,DE,1693134646
387,wanaraja,-7.1749,107.9808,296.45,78,55,1.95,ID,1693134875
388,egilsstadir,65.2653,-14.3948,285.1,87,100,3.09,IS,1693134875
389,singtam,27.2333,88.5,299.72,97,100,1.51,IN,1693134876
390,krupina,48.3554,19.0647,304.92,37,27,3.7,SK,1693134876
391,kiffa,16.6166,-11.4045,308.27,34,100,6.2,MR,1693134876
392,keelung,25.1283,121.7419,303.2,85,29,3.24,TW,1693134846
393,ceeldheer,3.8488,47.1806,304.3,49,47,11.24,SO,1693134877
394,gagarin,55.5529,34.9954,295.01,67,60,2.19,RU,1693134877
395,marshall,34.3834,-86.3333,297.8,92,0,0.89,US,1693134878
396,cheyenne,41.14,-104.8203,290.8,83,0,2.24,US,1693134878
397,castillos,-34.1667,-53.8333,277.7,76,3,2.35,UY,1693134878
398,elva,58.2225,26.4211,293.27,90,100,1.34,EE,1693134879
399,havsa,41.549,26.8221,306.67,23,4,6.28,TR,1693134879
400,lluta,-16.0147,-72.0142,281.49,14,10,2.37,PE,1693134879
401,hargeysa,9.56,44.065,305.2,26,8,9.11,SO,1693134879
402,greymouth,-42.4667,171.2,278.0,85,42,2.67,NZ,1693134730
403,lerwick,60.1545,-1.1494,287.15,86,100,4.74,GB,1693134880
404,ponta delgada,37.7333,-25.6667,297.55,69,40,6.17,PT,1693134880
405,qiziltepa,40.0331,64.85,301.9,20,18,9.1,UZ,1693134881
406,acapulco de juarez,16.8634,-99.8901,299.05,89,0,2.06,MX,1693134743
407,virginia,37.5481,-77.4467,297.21,95,100,2.57,US,1693134881
408,strezhevoy,60.7333,77.5889,289.92,59,69,1.6,RU,1693134881
409,benguela,-12.5763,13.4055,297.54,73,32,4.94,AO,1693134855
410,cienfuegos,22.1461,-80.4356,298.59,84,87,1.27,CU,1693134882
411,kirakira,-10.4544,161.9205,298.49,83,100,5.56,SB,1693134882
412,belokurikha,51.9959,84.9896,298.37,59,85,3.68,RU,1693134883
413,changli,39.7042,119.1506,294.57,75,100,2.16,CN,1693134883
414,bardai,11.65,7.2333,302.66,56,95,1.07,NG,1693134884
415,sol'-iletsk,51.1631,54.9918,290.33,42,99,7.39,RU,1693134873
416,essaouira,31.5125,-9.77,304.87,42,0,7.2,MA,1693134845
417,praia da vitoria,38.7333,-27.0667,298.01,73,75,7.47,PT,1693134885
418,west vancouver,49.3323,-123.1622,294.51,69,20,1.54,CA,1693134885
419,gimbi,9.1667,35.8333,293.89,72,8,1.47,ET,1693134886
420,kangding,30.0513,101.9603,287.64,88,100,2.35,CN,1693134886
421,vershino-darasunskiy,52.35,115.5167,288.1,58,99,0.97,RU,1693134886
422,tingo maria,-9.2895,-76.0088,293.18,92,66,0.6,PE,1693134887
423,polyarnyy,69.1989,33.4478,283.66,80,100,4.92,RU,1693134742
424,sapiranga,-29.6381,-51.0069,280.41,84,9,0.41,BR,1693134821
425,sisak,45.4661,16.3783,305.14,29,15,1.66,HR,1693134888
426,prince rupert,54.3161,-130.3201,285.98,100,100,2.06,CA,1693134888
427,letpandan,17.7833,95.75,298.47,90,100,3.24,MM,1693134888
428,cananeia,-25.0147,-47.9267,288.2,74,100,2.59,BR,1693134889
429,labuan,5.2767,115.2417,300.35,78,20,1.54,MY,1693134889
430,acajutla,13.5928,-89.8275,299.9,85,100,2.71,SV,1693134889
431,west sacramento,38.5805,-121.5302,292.3,78,0,3.6,US,1693134890
432,saldanha,-33.0117,17.9442,288.32,56,0,3.16,ZA,1693134890
433,tadmur,34.5608,38.2805,310.48,17,0,5.3,SY,1693134890
434,kupang,-10.1667,123.5833,298.16,70,8,4.91,ID,1693134647
435,fuerte olimpo,-21.0415,-57.8738,291.48,29,96,3.27,PY,1693134891
436,dhilwan,31.5169,75.35,305.99,44,4,2.92,IN,1693134892
437,tayu,-6.5397,111.0518,299.29,73,2,2.51,ID,1693134892
438,copala,16.65,-98.9833,297.85,88,36,1.62,MX,1693134892
439,ormara,25.2088,64.6357,300.37,79,77,7.05,PK,1693134893
440,midwest city,35.4495,-97.3967,297.77,83,40,5.66,US,1693134893
441,ishigaki,24.3448,124.1572,301.22,89,20,1.03,JP,1693134853
442,fort mcmurray,56.7268,-111.381,284.92,100,40,3.09,CA,1693134894
443,el haouaria,37.05,11.0144,306.16,40,4,4.16,TN,1693134894
444,mirny,62.5353,113.9611,291.14,55,8,1.37,RU,1693134895
445,mayahi,13.9553,7.6712,306.68,43,95,5.11,NE,1693134895
446,daru,-9.0763,143.2092,297.3,80,98,7.81,PG,1693134786
447,ghat,24.9647,10.1728,313.6,12,10,4.18,LY,1693134896
448,turpan,42.9333,89.1667,314.99,8,0,3.3,CN,1693134897
449,dokkum,53.3222,5.997,293.7,63,40,7.72,NL,1693134897
450,srandakan,-7.9386,110.2506,296.18,79,9,1.75,ID,1693134802
451,gargalianoi,37.0667,21.6333,303.49,53,0,4.31,GR,1693134897
452,hovd,48.0056,91.6419,301.04,19,53,3.68,MN,1693134898
453,san julian,21.0167,-102.1667,285.02,91,98,0.72,MX,1693134898
454,calca,-13.3333,-71.95,283.79,73,85,1.3,PE,1693134898
455,wellington,-41.2866,174.7756,282.07,80,100,10.8,NZ,1693134638
456,port blair,11.6667,92.75,302.17,79,75,3.6,IN,1693134777
457,shingu,33.7333,135.9833,297.95,91,11,1.18,JP,1693134899
458,katsuura,35.1333,140.3,298.14,87,100,2.49,JP,1693134900
459,kapa'a,22.0752,-159.319,300.33,81,40,6.69,US,1693134900
460,arteaga,18.4667,-102.4167,290.37,96,91,0.97,MX,1693134901
461,saint-philippe,-21.3585,55.7679,296.92,80,32,6.64,RE,1693134901
462,vainode,56.4333,21.8667,293.14,48,73,3.09,LV,1693134902
463,ulsteinvik,62.3432,5.8487,290.79,89,94,3.13,NO,1693134903
464,saint-gilles,43.6766,4.4302,295.1,88,75,3.6,FR,1693134903
465,rasony,55.9089,28.8126,297.57,67,100,1.69,BY,1693134904
466,sanski most,44.7653,16.6656,310.97,20,13,1.78,BA,1693134904
467,nadi,-17.8,177.4167,295.15,73,20,5.14,FJ,1693134905
468,kosh-agach,50.0,88.6667,298.71,20,52,0.41,RU,1693134906
469,basoko,1.2391,23.616,300.22,69,100,1.43,CD,1693134906
470,ulanhot,46.0833,122.0833,290.71,65,0,1.56,CN,1693134906
471,pali,25.7667,73.3333,305.81,45,34,8.34,IN,1693134907
472,mil'kovo,55.6078,37.7956,294.85,57,72,3.77,RU,1693134908
473,malpica,43.3228,-8.8105,295.24,64,22,4.51,ES,1693134908
474,turaif,31.6725,38.6637,308.29,13,0,3.6,SA,1693134909
475,pemba,-12.974,40.5178,301.54,74,20,6.69,MZ,1693134910
476,san rafael,-34.6177,-68.3301,279.39,76,0,1.41,AR,1693134910
477,port macquarie,-31.4333,152.9167,286.98,76,54,1.56,AU,1693134740
478,sinabang,2.4803,96.3801,301.08,77,66,1.39,ID,1693134911
479,north battleford,52.7834,-108.2847,287.13,71,1,2.67,CA,1693134650
480,rincon de romos,22.2333,-102.3,289.33,78,96,1.73,MX,1693134911
481,la cocha,-27.7773,-65.5704,279.3,61,0,1.83,AR,1693134912
482,akureyri,65.6835,-18.0878,286.11,71,75,3.09,IS,1693134785
483,vila velha,-20.3297,-40.2925,292.12,97,100,5.66,BR,1693134778
484,ciudad lazaro cardenas,17.9583,-102.2,298.47,89,100,1.54,MX,1693134740
485,howard springs,-12.497,131.047,299.72,67,26,3.75,AU,1693134913
486,sasovo,54.3537,41.9199,293.98,52,81,4.81,RU,1693134913
487,malvan,16.0667,73.4667,301.77,74,36,5.39,IN,1693134914
488,kalisz,51.7611,18.091,296.82,62,82,4.23,PL,1693134700
489,pathein,16.7833,94.7333,300.8,79,84,4.88,MM,1693134915
490,tofol,5.3248,163.0078,302.03,71,90,3.4,FM,1693134915
491,makhambet,47.6667,51.5833,297.41,21,3,5.34,KZ,1693134915
492,vandalia,39.8906,-84.1988,291.19,88,100,4.63,US,1693134916
493,torghay,49.6339,63.4981,289.57,48,100,8.09,KZ,1693134916
494,rongelap,11.1635,166.8941,300.74,79,100,9.36,MH,1693134917
495,cruzeiro do sul,-29.5128,-51.9853,279.54,95,1,0.16,BR,1693134917
496,tadine,-21.55,167.8833,292.42,70,100,6.57,NC,1693134918
497,lata,40.1629,-8.3327,295.33,37,71,3.34,PT,1693134918
498,pandan,14.0453,124.1694,301.23,76,100,8.52,PH,1693134919
499,taltal,-25.4,-70.4833,288.97,66,0,1.02,CL,1693134919
500,tegueste,28.5167,-16.3167,303.79,35,20,1.54,ES,1693134920
501,markovo,57.3206,107.0881,293.82,69,84,2.18,RU,1693134921
502,jiagedaqi,50.4167,124.1167,285.62,77,91,0.72,CN,1693134922
503,lubumbashi,-11.6609,27.4794,306.83,10,1,5.72,CD,1693134922
504,rabo de peixe,37.8,-25.5833,296.88,69,40,6.17,PT,1693134923
505,balboa,2.0396,-77.2168,287.98,89,24,0.82,CO,1693134923
506,borivli,19.2333,72.85,299.1,100,75,3.6,IN,1693134923
507,edson,53.5835,-116.4356,282.23,93,0,1.54,CA,1693134923
508,saint-joseph,-21.3667,55.6167,296.36,78,26,4.55,RE,1693134924
509,dhidhdhoo,6.8833,73.1,301.89,73,63,4.48,MV,1693134814
510,katsuren-haebaru,26.3369,127.8719,302.36,77,20,2.06,JP,1693134889
511,la'ie,21.6477,-157.9253,297.84,78,1,2.24,US,1693134925
512,barcelos,41.5388,-8.6151,295.33,45,63,5.67,PT,1693134926
513,pangoa,-12.1167,-73.0,292.55,98,81,1.2,PE,1693134927
514,al bardiyah,31.7561,25.0865,304.06,50,0,7.37,LY,1693134927
515,sur,22.5667,59.5289,307.26,58,45,3.62,OM,1693134927
516,malibu,34.005,-118.8101,297.52,54,0,1.8,US,1693134927
517,aripuana,-9.1667,-60.6333,296.19,93,57,0.92,BR,1693134928
518,newman,37.3138,-121.0208,294.28,78,0,0.89,US,1693134928
519,la gi,10.6667,107.7833,301.64,79,92,3.73,VN,1693134928
520,fernie,49.5,-115.0687,281.26,60,2,1.88,CA,1693134929
521,usogorsk,63.4106,48.6872,282.26,79,96,2.92,RU,1693134929
522,posse,-14.0931,-46.3694,297.18,57,95,0.52,BR,1693134929
523,vangaindrano,-23.35,47.6,299.32,66,3,4.24,MG,1693134930
524,neiafu,-18.65,-173.9833,295.77,70,100,9.29,TO,1693134930
525,lethem,3.3803,-59.7968,299.0,67,0,2.14,GY,1693134931
526,kirkland lake,48.1446,-80.0377,273.31,100,0,0.0,CA,1693134931
527,qina,26.1642,32.7267,317.39,9,0,8.51,EG,1693134932
528,sept-iles,50.2001,-66.3821,287.62,73,75,6.17,CA,1693134816
529,ivolginsk,51.7492,107.2837,292.96,68,20,3.0,RU,1693134932
530,odda,60.0691,6.5457,288.02,97,100,2.41,NO,1693134933
531,corner brook,48.9667,-57.9484,287.24,96,100,5.85,CA,1693134934
532,mahina,-17.5065,-149.489,298.02,61,20,5.66,PF,1693134934
533,sarangani,5.4033,125.4636,301.09,77,2,5.79,PH,1693134934
534,ocos,14.5094,-92.1933,300.02,81,100,1.82,GT,1693134935
535,lowestoft,52.4752,1.7516,292.63,69,33,6.38,GB,1693134743
536,lashio,22.9333,97.75,297.71,83,72,1.28,MM,1693134935
537,margate,51.3813,1.3862,292.54,62,1,3.58,GB,1693134760
538,mugia,43.1041,-9.2179,294.77,68,28,5.55,ES,1693134936
539,san mariano,7.5,126.0,297.26,92,25,2.17,PH,1693134936
540,puerto aysen,-45.4,-72.7,277.99,99,100,2.15,CL,1693134763
541,tambacounda,13.7539,-13.7586,304.18,70,40,4.12,SN,1693134937
542,sibay,52.7181,58.6658,288.2,48,99,5.34,RU,1693134937
543,isangel,-19.55,169.2667,293.46,80,86,6.36,VU,1693134938
544,sungai raya,0.7,108.9,300.45,79,100,3.51,ID,1693134680
545,kavieng,-2.5744,150.7967,300.46,83,100,4.36,PG,1693134938
546,carnarvon,-24.8667,113.6333,294.14,61,0,4.04,AU,1693134939
547,rio san juan,19.6439,-70.0763,298.24,83,51,1.57,DO,1693134939
548,saurimo,-9.6608,20.3916,310.05,11,0,2.13,AO,1693134805
549,tripoli,32.8752,13.1875,307.14,39,0,1.76,LY,1693134940
550,poronaysk,49.2167,143.1167,286.83,96,100,2.53,RU,1693134940
